[
  {
    "nome": "Rede Panvel de Farmácias",
    "endereco": "AVENIDA PRAIA DE BELAS,1181",
    "bairro": "PRAIA DE BELAS",
    "telefone": "(51) 32333245",
    "cep": "",
    "latitude": -30.0493541254,
    "longitude": -51.2277966326,
    "residuos": "medicamentos vencidos",
    "horario": "",
    "site": "http://panvel.com.br",
    "coleta": ""
  },
  {
    "nome": "Rede Panvel de Farmácias",
    "endereco": "AVENIDA ALBERTO BINS,302",
    "bairro": "CENTRO HISTORICO",
    "telefone": "(51) 32248587",
    "cep": "",
    "latitude": -30.0280722504,
    "longitude": -51.223706812,
    "residuos": "medicamentos vencidos",
    "horario": "",
    "site": "http://panvel.com.br",
    "coleta": ""
  },
  {
    "nome": "Rede Panvel de Farmácias",
    "endereco": "AVENIDA ALBERTO BINS,581",
    "bairro": "CENTRO HISTORICO",
    "telefone": "(51) 32246776",
    "cep": "",
    "latitude": -30.0280963841,
    "longitude": -51.2208292997,
    "residuos": "medicamentos vencidos",
    "horario": "",
    "site": "http://panvel.com.br",
    "coleta": ""
  },
  {
    "nome": "Rede Panvel de Farmácias",
    "endereco": "RUA ANITA GARIBALDI,1700",
    "bairro": "MONT SERRAT",
    "telefone": "(51) 3328325",
    "cep": "",
    "latitude": -30.0241323167,
    "longitude": -51.1789871725,
    "residuos": "medicamentos vencidos",
    "horario": "",
    "site": "http://panvel.com.br",
    "coleta": ""
  },
  {
    "nome": "Rede Panvel de Farmácias",
    "endereco": "RUA ANITA GARIBALDI,600",
    "bairro": "MONT SERRAT",
    "telefone": "(51) 33328300",
    "cep": "",
    "latitude": -30.0268504361,
    "longitude": -51.1900627278,
    "residuos": "medicamentos vencidos",
    "horario": "",
    "site": "http://panvel.com.br",
    "coleta": ""
  },
  {
    "nome": "Rede Panvel de Farmácias",
    "endereco": "RUA ANITA GARIBALDI,2099",
    "bairro": "MONT SERRAT",
    "telefone": "(51) 33281410",
    "cep": "",
    "latitude": -30.0229749313,
    "longitude": -51.1759339329,
    "residuos": "medicamentos vencidos",
    "horario": "",
    "site": "http://panvel.com.br",
    "coleta": ""
  },
  {
    "nome": "Rede Panvel de Farmácias",
    "endereco": "AVENIDA ASSIS BRASIL,1983",
    "bairro": "CRISTO REDENTOR",
    "telefone": "(51) 33412830",
    "cep": "",
    "latitude": -30.0119284884,
    "longitude": -51.1675867019,
    "residuos": "medicamentos vencidos",
    "horario": "",
    "site": "http://panvel.com.br",
    "coleta": ""
  },
  {
    "nome": "Rede Panvel de Farmácias",
    "endereco": "AVENIDA ASSIS BRASIL,3522",
    "bairro": "JARDIM LINDOIA",
    "telefone": "(51) 33408308",
    "cep": "",
    "latitude": -30.0103330653,
    "longitude": -51.1515049433,
    "residuos": "medicamentos vencidos",
    "horario": "",
    "site": "http://panvel.com.br",
    "coleta": ""
  },
  {
    "nome": "Rede Panvel de Farmácias",
    "endereco": "AVENIDA ASSIS BRASIL,734",
    "bairro": "SANTA MARIA GORETTI",
    "telefone": "(51) 33413776",
    "cep": "",
    "latitude": -30.008544861,
    "longitude": -51.1775744375,
    "residuos": "medicamentos vencidos",
    "horario": "",
    "site": "http://panvel.com.br",
    "coleta": ""
  },
  {
    "nome": "Rede Panvel de Farmácias",
    "endereco": "AVENIDA ASSIS BRASIL,4320",
    "bairro": "SAO SEBASTIAO",
    "telefone": "(51) 33480111",
    "cep": "",
    "latitude": -30.0090192137,
    "longitude": -51.1436103984,
    "residuos": "medicamentos vencidos",
    "horario": "",
    "site": "http://panvel.com.br",
    "coleta": ""
  },
  {
    "nome": "Rede Panvel de Farmácias",
    "endereco": "AVENIDA ASSIS BRASIL,164",
    "bairro": "SANTA MARIA GORETTI",
    "telefone": "(51) 33372709",
    "cep": "",
    "latitude": -30.0079913521,
    "longitude": -51.1842244789,
    "residuos": "medicamentos vencidos",
    "horario": "",
    "site": "http://panvel.com.br",
    "coleta": ""
  },
  {
    "nome": "Rede Panvel de Farmácias",
    "endereco": "AVENIDA ASSIS BRASIL,2827",
    "bairro": "CRISTO REDENTOR",
    "telefone": "(51) 3361326624",
    "cep": "",
    "latitude": -30.0106971759,
    "longitude": -51.1593341028,
    "residuos": "medicamentos vencidos",
    "horario": "",
    "site": "http://panvel.com.br",
    "coleta": ""
  },
  {
    "nome": "Rede Panvel de Farmácias",
    "endereco": "AVENIDA ASSIS BRASIL,2611",
    "bairro": "SALA 102CRISTO REDENTOR",
    "telefone": "(51) 33296298",
    "cep": "",
    "latitude": -30.0109047384,
    "longitude": -51.1610819151,
    "residuos": "medicamentos vencidos",
    "horario": "",
    "site": "http://panvel.com.br",
    "coleta": ""
  },
  {
    "nome": "Rede Panvel de Farmácias",
    "endereco": "AVENIDA ASSIS BRASIL,6389",
    "bairro": "CRISTO REDENTOR",
    "telefone": "(51) 33659083",
    "cep": "",
    "latitude": -29.9950955177,
    "longitude": -51.1300412907,
    "residuos": "medicamentos vencidos",
    "horario": "",
    "site": "http://panvel.com.br",
    "coleta": ""
  },
  {
    "nome": "Rede Panvel de Farmácias",
    "endereco": "AVENIDA BALTAZAR DE OLIVEIRA GARCIA,845",
    "bairro": "SAO SEBASTIAO",
    "telefone": "(51) 33651415",
    "cep": "",
    "latitude": -30.0100275842,
    "longitude": -51.1355739441,
    "residuos": "medicamentos vencidos",
    "horario": "",
    "site": "http://panvel.com.br",
    "coleta": ""
  },
  {
    "nome": "Rede Panvel de Farmácias",
    "endereco": "AVENIDA BORGES DE MEDEIROS,628",
    "bairro": "CENTRO HISTORICO",
    "telefone": "(51) 32244407",
    "cep": "",
    "latitude": -30.0319913551,
    "longitude": -51.227635425,
    "residuos": "medicamentos vencidos",
    "horario": "",
    "site": "http://panvel.com.br",
    "coleta": ""
  },
  {
    "nome": "Rede Panvel de Farmácias",
    "endereco": "AVENIDA CARLOS GOMES,11",
    "bairro": "AUXILIADORA",
    "telefone": "(51) 33330784",
    "cep": "",
    "latitude": -30.0221449636,
    "longitude": -51.1845495459,
    "residuos": "medicamentos vencidos",
    "horario": "",
    "site": "http://panvel.com.br",
    "coleta": ""
  },
  {
    "nome": "Rede Panvel de Farmácias",
    "endereco": "AVENIDA CHUI,75",
    "bairro": "CRISTAL",
    "telefone": "(51) 32635663",
    "cep": "",
    "latitude": -30.0838527033,
    "longitude": -51.2410823766,
    "residuos": "medicamentos vencidos",
    "horario": "",
    "site": "http://panvel.com.br",
    "coleta": ""
  },
  {
    "nome": "Rede Panvel de Farmácias",
    "endereco": "RUA CORONEL BORDINI,12",
    "bairro": "AUXILIADORA",
    "telefone": "(51) 33742749",
    "cep": "",
    "latitude": -30.017950729,
    "longitude": -51.1977481885,
    "residuos": "medicamentos vencidos",
    "horario": "",
    "site": "http://panvel.com.br",
    "coleta": ""
  },
  {
    "nome": "Rede Panvel de Farmácias",
    "endereco": "RUA COSTA,40",
    "bairro": "MENINO DEUS(51) 32302621",
    "telefone": "",
    "cep": "",
    "latitude": -30.058308335,
    "longitude": -51.2290359984,
    "residuos": "medicamentos vencidos",
    "horario": "",
    "site": "http://panvel.com.br",
    "coleta": ""
  },
  {
    "nome": "Rede Panvel de Farmácias",
    "endereco": "RUA COSTA,29",
    "bairro": "SALA 05MENINO DEUS",
    "telefone": "(51) 32338202",
    "cep": "",
    "latitude": -30.0583282769,
    "longitude": -51.2296626071,
    "residuos": "medicamentos vencidos",
    "horario": "",
    "site": "http://panvel.com.br",
    "coleta": ""
  },
  {
    "nome": "Rede Panvel de Farmácias",
    "endereco": "AVENIDA CRISTOVAO COLOMBO,2110",
    "bairro": "FLORESTA",
    "telefone": "(51) 33468104",
    "cep": "",
    "latitude": -30.0179312813,
    "longitude": -51.1998218673,
    "residuos": "medicamentos vencidos",
    "horario": "",
    "site": "http://panvel.com.br",
    "coleta": ""
  },
  {
    "nome": "Rede Panvel de Farmácias",
    "endereco": "AVENIDA CRISTOVAO COLOMBO,1271",
    "bairro": "FLORESTA",
    "telefone": "(51) 33954633",
    "cep": "",
    "latitude": -30.0203999765,
    "longitude": -51.2070721511,
    "residuos": "medicamentos vencidos",
    "horario": "",
    "site": "http://panvel.com.br",
    "coleta": ""
  },
  {
    "nome": "Rede Panvel de Farmácias",
    "endereco": "AVENIDA CRISTOVAO COLOMBO,545",
    "bairro": "FLORESTA",
    "telefone": "(51) 30187223",
    "cep": "",
    "latitude": -30.0253608964,
    "longitude": -51.2123222711,
    "residuos": "medicamentos vencidos",
    "horario": "",
    "site": "http://panvel.com.br",
    "coleta": ""
  },
  {
    "nome": "Rede Panvel de Farmácias",
    "endereco": "AVENIDA CRISTOVAO COLOMBO,976",
    "bairro": "FLORESTA",
    "telefone": "(51) 32246677",
    "cep": "",
    "latitude": -30.0227443364,
    "longitude": -51.2093554934,
    "residuos": "medicamentos vencidos",
    "horario": "",
    "site": "http://panvel.com.br",
    "coleta": ""
  },
  {
    "nome": "Rede Panvel de Farmácias",
    "endereco": "AVENIDADA AZENHA,699",
    "bairro": "AZENHA",
    "telefone": "(51) 32231044",
    "cep": "",
    "latitude": -30.0500545855,
    "longitude": -51.2133302644,
    "residuos": "medicamentos vencidos",
    "horario": "",
    "site": "http://panvel.com.br",
    "coleta": ""
  },
  {
    "nome": "Rede Panvel de Farmácias",
    "endereco": "AVENIDADA AZENHA,1395",
    "bairro": "AZENHA",
    "telefone": "(51) 32232909",
    "cep": "",
    "latitude": -30.0569091815,
    "longitude": -51.2153926397,
    "residuos": "medicamentos vencidos",
    "horario": "",
    "site": "http://panvel.com.br",
    "coleta": ""
  },
  {
    "nome": "Rede Panvel de Farmácias",
    "endereco": "AVENIDADA CAVALHADA,2955",
    "bairro": "CAVALHADA",
    "telefone": "(51) 32410048",
    "cep": "",
    "latitude": -30.11617327,
    "longitude": -51.2249309072,
    "residuos": "medicamentos vencidos",
    "horario": "",
    "site": "http://panvel.com.br",
    "coleta": ""
  },
  {
    "nome": "Rede Panvel de Farmácias",
    "endereco": "AVENIDADA CAVALHADA,3621",
    "bairro": "CAVALHADA",
    "telefone": "(51) 32493408",
    "cep": "",
    "latitude": -30.1240001121,
    "longitude": -51.2237821651,
    "residuos": "medicamentos vencidos",
    "horario": "",
    "site": "http://panvel.com.br",
    "coleta": ""
  },
  {
    "nome": "Rede Panvel de Farmácias",
    "endereco": "AVENIDA DIARIO DE NOTICIAS,300",
    "bairro": "CRISTAL",
    "telefone": "(51) 32423125",
    "cep": "",
    "latitude": -30.0836516287,
    "longitude": -51.2469744332,
    "residuos": "medicamentos vencidos",
    "horario": "",
    "site": "http://panvel.com.br",
    "coleta": ""
  },
  {
    "nome": "Rede Panvel de Farmácias",
    "endereco": "RUA DOS ANDRADAS,1238",
    "bairro": "CENTRO HISTORICO",
    "telefone": "(51) 32248466",
    "cep": "",
    "latitude": -30.0298444034,
    "longitude": -51.2294540322,
    "residuos": "medicamentos vencidos",
    "horario": "",
    "site": "http://panvel.com.br",
    "coleta": ""
  },
  {
    "nome": "Rede Panvel de Farmácias",
    "endereco": "RUA DOS ANDRADAS,1401",
    "bairro": "CENTRO HISTORICO",
    "telefone": "(51) 32241085",
    "cep": "",
    "latitude": -30.0297754171,
    "longitude": -51.2272654758,
    "residuos": "medicamentos vencidos",
    "horario": "",
    "site": "http://panvel.com.br",
    "coleta": ""
  },
  {
    "nome": "Rede Panvel de Farmácias",
    "endereco": "RUA DOS ANDRADAS,1320",
    "bairro": "CENTRO HISTORICO",
    "telefone": "(51) 32284660",
    "cep": "",
    "latitude": -30.0298228864,
    "longitude": -51.2284955239,
    "residuos": "medicamentos vencidos",
    "horario": "",
    "site": "http://panvel.com.br",
    "coleta": ""
  },
  {
    "nome": "Rede Panvel de Farmácias",
    "endereco": "RUA DOS ANDRADAS,1001",
    "bairro": "CENTRO HISTORICO",
    "telefone": "(51) 32116402",
    "cep": "",
    "latitude": -30.0305902192,
    "longitude": -51.2318457973,
    "residuos": "medicamentos vencidos",
    "horario": "",
    "site": "http://panvel.com.br",
    "coleta": ""
  },
  {
    "nome": "Rede Panvel de Farmácias",
    "endereco": "RUA DOS ANDRADAS,735",
    "bairro": "CENTRO HISTORICO",
    "telefone": "(51) 32281520",
    "cep": "",
    "latitude": -30.0314155284,
    "longitude": -51.2342872402,
    "residuos": "medicamentos vencidos",
    "horario": "",
    "site": "http://panvel.com.br",
    "coleta": ""
  },
  {
    "nome": "Rede Panvel de Farmácias",
    "endereco": "RUA DOUTOR FLORES,252",
    "bairro": "CENTRO HISTORICO",
    "telefone": "",
    "cep": "",
    "latitude": -30.0287948366,
    "longitude": -51.224621137,
    "residuos": "medicamentos vencidos",
    "horario": "",
    "site": "http://panvel.com.br",
    "coleta": ""
  },
  {
    "nome": "Rede Panvel de Farmácias",
    "endereco": "AVENIDA DOUTOR NILO PECANHA,2245",
    "bairro": "BOA VISTA",
    "telefone": "(51) 33285766",
    "cep": "",
    "latitude": -30.0282096008,
    "longitude": -51.1701129711,
    "residuos": "medicamentos vencidos",
    "horario": "",
    "site": "http://panvel.com.br",
    "coleta": ""
  },
  {
    "nome": "Rede Panvel de Farmácias",
    "endereco": "AVENIDA FARRAPOS,858",
    "bairro": "FLORESTA",
    "telefone": "(51) 32124702",
    "cep": "",
    "latitude": -30.0223487591,
    "longitude": -51.2125535974,
    "residuos": "medicamentos vencidos",
    "horario": "",
    "site": "http://panvel.com.br",
    "coleta": ""
  },
  {
    "nome": "Rede Panvel de Farmácias",
    "endereco": "AVENIDA FARRAPOS,361",
    "bairro": "FLORESTA",
    "telefone": "(51) 32110651",
    "cep": "",
    "latitude": -30.0257984858,
    "longitude": -51.2159646643,
    "residuos": "medicamentos vencidos",
    "horario": "",
    "site": "http://panvel.com.br",
    "coleta": ""
  },
  {
    "nome": "Rede Panvel de Farmácias",
    "endereco": "RUA FERNANDES VIEIRA,401",
    "bairro": "BOM FIM",
    "telefone": "(51) 33128356",
    "cep": "",
    "latitude": -30.0330133992,
    "longitude": -51.2109367465,
    "residuos": "medicamentos vencidos",
    "horario": "",
    "site": "http://panvel.com.br",
    "coleta": ""
  },
  {
    "nome": "Rede Panvel de Farmácias",
    "endereco": "RUA FREDERICO MENTZ,1561",
    "bairro": "NAVEGANTES",
    "telefone": "(51) 33742600",
    "cep": "",
    "latitude": -29.9958706322,
    "longitude": -51.2020609551,
    "residuos": "medicamentos vencidos",
    "horario": "",
    "site": "http://panvel.com.br",
    "coleta": ""
  },
  {
    "nome": "Rede Panvel de Farmácias",
    "endereco": "RUA GENERAL LIMA E SILVA,606",
    "bairro": "CIDADE BAIXA",
    "telefone": "(51) 32212920",
    "cep": "",
    "latitude": -30.038066301,
    "longitude": -51.2216516069,
    "residuos": "medicamentos vencidos",
    "horario": "",
    "site": "http://panvel.com.br",
    "coleta": ""
  },
  {
    "nome": "Rede Panvel de Farmácias",
    "endereco": "AVENIDA GETULIO VARGAS,1714",
    "bairro": "MENINO DEUS",
    "telefone": "(51) 32333081",
    "cep": "",
    "latitude": -30.0601093196,
    "longitude": -51.2230963216,
    "residuos": "medicamentos vencidos",
    "horario": "",
    "site": "http://panvel.com.br",
    "coleta": ""
  },
  {
    "nome": "Rede Panvel de Farmácias",
    "endereco": "AVENIDA GOETHE,20",
    "bairro": "RIO BRANCO",
    "telefone": "(51) 33321582",
    "cep": "",
    "latitude": -30.0287729573,
    "longitude": -51.2003477435,
    "residuos": "medicamentos vencidos",
    "horario": "",
    "site": "http://panvel.com.br",
    "coleta": ""
  },
  {
    "nome": "Rede Panvel de Farmácias",
    "endereco": "RUA GOMES JARDIM,253",
    "bairro": "SANTANA",
    "telefone": "(51) 32189500",
    "cep": "",
    "latitude": -30.0458786382,
    "longitude": -51.207752462,
    "residuos": "medicamentos vencidos",
    "horario": "",
    "site": "http://panvel.com.br",
    "coleta": ""
  },
  {
    "nome": "Rede Panvel de Farmácias",
    "endereco": "AVENIDA INDEPENDENCIA,155",
    "bairro": "INDEPENDENCIA",
    "telefone": "(51) 3227794824",
    "cep": "",
    "latitude": -30.0294659863,
    "longitude": -51.2201617477,
    "residuos": "medicamentos vencidos",
    "horario": "",
    "site": "http://panvel.com.br",
    "coleta": ""
  },
  {
    "nome": "Rede Panvel de Farmácias",
    "endereco": "AVENIDA INDEPENDENCIAS,636",
    "bairro": "INDEPENDENCIA",
    "telefone": "(51) 32247500",
    "cep": "",
    "latitude": -30.0292325281,
    "longitude": -51.2147011764,
    "residuos": "medicamentos vencidos",
    "horario": "",
    "site": "http://panvel.com.br",
    "coleta": ""
  },
  {
    "nome": "Rede Panvel de Farmácias",
    "endereco": "AVENIDA IPIRANGA,6681",
    "bairro": "AZENHA",
    "telefone": "(51) 33157209",
    "cep": "",
    "latitude": -30.0580543299,
    "longitude": -51.1762819418,
    "residuos": "medicamentos vencidos",
    "horario": "",
    "site": "http://panvel.com.br",
    "coleta": ""
  },
  {
    "nome": "Rede Panvel de Farmácias",
    "endereco": "AVENIDA IPIRANGA,5200",
    "bairro": "AZENHA",
    "telefone": "(51) 33366262",
    "cep": "",
    "latitude": -30.051973956,
    "longitude": -51.213458956,
    "residuos": "medicamentos vencidos",
    "horario": "",
    "site": "http://panvel.com.br",
    "coleta": ""
  },
  {
    "nome": "Rede Panvel de Farmácias",
    "endereco": "AVENIDA IPIRANGA,2495",
    "bairro": "IPIRANGA",
    "telefone": "(51) 32198370",
    "cep": "",
    "latitude": -30.0442177392,
    "longitude": -51.206893199,
    "residuos": "medicamentos vencidos",
    "horario": "",
    "site": "http://panvel.com.br",
    "coleta": ""
  },
  {
    "nome": "Rede Panvel de Farmácias",
    "endereco": "AVENIDA IPIRANGA,6690",
    "bairro": "AZENHA",
    "telefone": "(51) 33364998",
    "cep": "",
    "latitude": -30.0577783324,
    "longitude": -51.1770971542,
    "residuos": "medicamentos vencidos",
    "horario": "",
    "site": "http://panvel.com.br",
    "coleta": ""
  },
  {
    "nome": "Rede Panvel de Farmácias",
    "endereco": "AVENIDA IPIRANGA,6681",
    "bairro": "AZENHA",
    "telefone": "(51) 33842257",
    "cep": "",
    "latitude": -30.0580505122,
    "longitude": -51.1762848922,
    "residuos": "medicamentos vencidos",
    "horario": "",
    "site": "http://panvel.com.br",
    "coleta": ""
  },
  {
    "nome": "Rede Panvel de Farmácias",
    "endereco": "AVENIDA IPIRANGA,4850",
    "bairro": "AZENHA",
    "telefone": "(51) 33361909",
    "cep": "",
    "latitude": -30.0545402935,
    "longitude": -51.1903193249,
    "residuos": "medicamentos vencidos",
    "horario": "",
    "site": "http://panvel.com.br",
    "coleta": ""
  },
  {
    "nome": "Rede Panvel de Farmácias",
    "endereco": "AVENIDA JERONIMO DE ORNELAS,543",
    "bairro": "SANTANA",
    "telefone": "(51) 32230178",
    "cep": "",
    "latitude": -30.040697541,
    "longitude": -51.2098617414,
    "residuos": "medicamentos vencidos",
    "horario": "",
    "site": "http://panvel.com.br",
    "coleta": ""
  },
  {
    "nome": "Rede Panvel de Farmácias",
    "endereco": "AVENIDA JOAO PESSOA,1831",
    "bairro": "FARROUPILHA",
    "telefone": "(51) 32230130",
    "cep": "",
    "latitude": -30.0458456857,
    "longitude": -51.2129064697,
    "residuos": "medicamentos vencidos",
    "horario": "",
    "site": "http://panvel.com.br",
    "coleta": ""
  },
  {
    "nome": "Rede Panvel de Farmácias",
    "endereco": "AVENIDA JOAO PESSOA,2324",
    "bairro": "FARROUPILHA",
    "telefone": "(51) 32174088",
    "cep": "",
    "latitude": -30.0492692084,
    "longitude": -51.2099871327,
    "residuos": "medicamentos vencidos",
    "horario": "",
    "site": "http://panvel.com.br",
    "coleta": ""
  },
  {
    "nome": "Rede Panvel de Farmácias",
    "endereco": "AVENIDA JOAO WALLIG,1800",
    "bairro": "PASSO D AREIA",
    "telefone": "(51) 33349353",
    "cep": "",
    "latitude": -30.0230258976,
    "longitude": -51.1632687356,
    "residuos": "medicamentos vencidos",
    "horario": "",
    "site": "http://panvel.com.br",
    "coleta": ""
  },
  {
    "nome": "Rede Panvel de Farmácias",
    "endereco": "AVENIDA JOAO WALLIG,1903",
    "bairro": "PASSO D AREIA",
    "telefone": "(51) 33285328",
    "cep": "",
    "latitude": -30.023463259,
    "longitude": -51.1633694309,
    "residuos": "medicamentos vencidos",
    "horario": "",
    "site": "http://panvel.com.br",
    "coleta": ""
  },
  {
    "nome": "Rede Panvel de Farmácias",
    "endereco": "RUA JOSE DE ALENCAR,399",
    "bairro": "MENINO DEUS",
    "telefone": "(51) 32335733",
    "cep": "",
    "latitude": -30.0597140858,
    "longitude": -51.2276654486,
    "residuos": "medicamentos vencidos",
    "horario": "",
    "site": "http://panvel.com.br",
    "coleta": ""
  },
  {
    "nome": "Rede Panvel de Farmácias",
    "endereco": "AVENIDA JUCA BATISTA,925",
    "bairro": "CAVALHADA",
    "telefone": "(51) 32463069",
    "cep": "",
    "latitude": -30.1417308369,
    "longitude": -51.2187634954,
    "residuos": "medicamentos vencidos",
    "horario": "",
    "site": "http://panvel.com.br",
    "coleta": ""
  },
  {
    "nome": "Rede Panvel de Farmácias",
    "endereco": "AVENIDA JUCA BATISTA,679",
    "bairro": "CAVALHADA",
    "telefone": "(51) 32467773",
    "cep": "",
    "latitude": -30.1398686379,
    "longitude": -51.2200619551,
    "residuos": "medicamentos vencidos",
    "horario": "",
    "site": "http://panvel.com.br",
    "coleta": ""
  },
  {
    "nome": "Rede Panvel de Farmácias",
    "endereco": "RUA MARQUES DO POMBAL,565",
    "bairro": "MOINHOS DE VENTO",
    "telefone": "(51) 33467568",
    "cep": "",
    "latitude": -30.0198796536,
    "longitude": -51.198358744,
    "residuos": "medicamentos vencidos",
    "horario": "",
    "site": "http://panvel.com.br",
    "coleta": ""
  },
  {
    "nome": "Rede Panvel de Farmácias",
    "endereco": "RUA MOSTARDEIRO,287",
    "bairro": "INDEPENDENCIA",
    "telefone": "(51) 32220000",
    "cep": "",
    "latitude": -30.0286178011,
    "longitude": -51.2043213749,
    "residuos": "medicamentos vencidos",
    "horario": "",
    "site": "http://panvel.com.br",
    "coleta": ""
  },
  {
    "nome": "Rede Panvel de Farmácias",
    "endereco": "RUA MUCIO TEIXEIRA,680",
    "bairro": "MENINO DEUS",
    "telefone": "(51) 32353064",
    "cep": "",
    "latitude": -30.0512390085,
    "longitude": -51.2242869888,
    "residuos": "medicamentos vencidos",
    "horario": "",
    "site": "http://panvel.com.br",
    "coleta": ""
  },
  {
    "nome": "Rede Panvel de Farmácias",
    "endereco": "AVENIDA NILOPOLIS,543",
    "bairro": "PETROPOLIS",
    "telefone": "(51) 33304999",
    "cep": "",
    "latitude": -30.0385690916,
    "longitude": -51.1919403438,
    "residuos": "medicamentos vencidos",
    "horario": "",
    "site": "http://panvel.com.br",
    "coleta": ""
  },
  {
    "nome": "Rede Panvel de Farmácias",
    "endereco": "RUA OLAVO BARRETO VIANA,36",
    "bairro": "MOINHOS DE VENTO",
    "telefone": "(51) 32223331",
    "cep": "",
    "latitude": -30.0242755386,
    "longitude": -51.2011088877,
    "residuos": "medicamentos vencidos",
    "horario": "",
    "site": "http://panvel.com.br",
    "coleta": ""
  },
  {
    "nome": "Rede Panvel de Farmácias",
    "endereco": "AVENIDA OTAVIO ROCHA,48",
    "bairro": "CENTRO HISTORICO",
    "telefone": "(51) 32244562",
    "cep": "",
    "latitude": -30.0284984734,
    "longitude": -51.2261672431,
    "residuos": "medicamentos vencidos",
    "horario": "",
    "site": "http://panvel.com.br",
    "coleta": ""
  },
  {
    "nome": "Rede Panvel de Farmácias",
    "endereco": "AVENIDA OTTO NIEMEYER,601",
    "bairro": "TRISTEZA",
    "telefone": "(51) 32643860",
    "cep": "",
    "latitude": -30.1096503246,
    "longitude": -51.2533814218,
    "residuos": "medicamentos vencidos",
    "horario": "",
    "site": "http://panvel.com.br",
    "coleta": ""
  },
  {
    "nome": "Rede Panvel de Farmácias",
    "endereco": "RUA PADRE CHAGAS,306",
    "bairro": "MOINHOS DE VENTO",
    "telefone": "(51) 33116741",
    "cep": "",
    "latitude": -30.0246699663,
    "longitude": -51.2031006744,
    "residuos": "medicamentos vencidos",
    "horario": "",
    "site": "http://panvel.com.br",
    "coleta": ""
  },
  {
    "nome": "Rede Panvel de Farmácias",
    "endereco": "AVENIDA PLINIO BRASIL MILANO,2",
    "bairro": "HIGIENOPOLIS",
    "telefone": "(51) 33429665",
    "cep": "",
    "latitude": -30.0219738181,
    "longitude": -51.190603118,
    "residuos": "medicamentos vencidos",
    "horario": "",
    "site": "http://panvel.com.br",
    "coleta": ""
  },
  {
    "nome": "Rede Panvel de Farmácias",
    "endereco": "AVENIDA PLINIO BRASIL MILANO,1000",
    "bairro": "HIGIENOPOLIS",
    "telefone": "(51) 33377335",
    "cep": "",
    "latitude": -30.0205612078,
    "longitude": -51.181034846,
    "residuos": "medicamentos vencidos",
    "horario": "",
    "site": "http://panvel.com.br",
    "coleta": ""
  },
  {
    "nome": "Rede Panvel de Farmácias",
    "endereco": "AVENIDA PRAIA DE BELAS,1181",
    "bairro": "PRAIA DE BELAS",
    "telefone": "(51) 32314668",
    "cep": "",
    "latitude": -30.0493571965,
    "longitude": -51.2277960888,
    "residuos": "medicamentos vencidos",
    "horario": "",
    "site": "http://panvel.com.br",
    "coleta": ""
  },
  {
    "nome": "Rede Panvel de Farmácias",
    "endereco": "AVENIDA PRESIDENTE FRANKLIN ROOSEVELT,1308",
    "bairro": "NAVEGANTES",
    "telefone": "(51) 32220925",
    "cep": "",
    "latitude": -30.0112719481,
    "longitude": -51.2041894839,
    "residuos": "medicamentos vencidos",
    "horario": "",
    "site": "http://panvel.com.br",
    "coleta": ""
  },
  {
    "nome": "Rede Panvel de Farmácias",
    "endereco": "AVENIDA PROFESSOR OSCAR PEREIRA,3326",
    "bairro": "GLORIA",
    "telefone": "(51) 33367356",
    "cep": "",
    "latitude": -30.0760372751,
    "longitude": -51.2010407581,
    "residuos": "medicamentos vencidos",
    "horario": "",
    "site": "http://panvel.com.br",
    "coleta": ""
  },
  {
    "nome": "Rede Panvel de Farmácias",
    "endereco": "AVENIDA PROTASIO ALVES,2640",
    "bairro": "RIO BRANCO",
    "telefone": "(51) 33347511",
    "cep": "",
    "latitude": -30.043247013,
    "longitude": -51.182607479,
    "residuos": "medicamentos vencidos",
    "horario": "",
    "site": "http://panvel.com.br",
    "coleta": ""
  },
  {
    "nome": "Rede Panvel de Farmácias",
    "endereco": "AVENIDA PROTASIO ALVES,525",
    "bairro": "RIO BRANCO",
    "telefone": "(51) 33317125",
    "cep": "",
    "latitude": -30.0384160344,
    "longitude": -51.2029865825,
    "residuos": "medicamentos vencidos",
    "horario": "",
    "site": "http://panvel.com.br",
    "coleta": ""
  },
  {
    "nome": "Rede Panvel de Farmácias",
    "endereco": "PRAÇA QUINZE DE NOVEMBRO,38",
    "bairro": "CENTRO HISTORICO",
    "telefone": "(51) 32246367",
    "cep": "",
    "latitude": -30.0281098111,
    "longitude": -51.2266854126,
    "residuos": "medicamentos vencidos",
    "horario": "",
    "site": "http://panvel.com.br",
    "coleta": ""
  },
  {
    "nome": "Rede Panvel de Farmácias",
    "endereco": "RUA RAMIRO BARCELOS,910",
    "bairro": "FLORESTA",
    "telefone": "(51) 33119432",
    "cep": "",
    "latitude": -30.0268035352,
    "longitude": -51.2091441609,
    "residuos": "medicamentos vencidos",
    "horario": "",
    "site": "http://panvel.com.br",
    "coleta": ""
  },
  {
    "nome": "Rede Panvel de Farmácias",
    "endereco": "RUA RAMIRO BARCELOS,1115",
    "bairro": "INDEPENDENCIA",
    "telefone": "(51) 33117241",
    "cep": "",
    "latitude": -30.028737502,
    "longitude": -51.2086268909,
    "residuos": "medicamentos vencidos",
    "horario": "",
    "site": "http://panvel.com.br",
    "coleta": ""
  },
  {
    "nome": "Rede Panvel de Farmácias",
    "endereco": "RUA SANTA CECILIA,1269",
    "bairro": "SANTANA",
    "telefone": "(51) 33308632",
    "cep": "",
    "latitude": -30.0457701045,
    "longitude": -51.1995631544,
    "residuos": "medicamentos vencidos",
    "horario": "",
    "site": "http://panvel.com.br",
    "coleta": ""
  },
  {
    "nome": "Rede Panvel de Farmácias",
    "endereco": "AVENIDA SAO PEDRO,849",
    "bairro": "SAO GERALDO",
    "telefone": "(51) 33429382",
    "cep": "",
    "latitude": -30.0110961753,
    "longitude": -51.2009280367,
    "residuos": "medicamentos vencidos",
    "horario": "",
    "site": "http://panvel.com.br",
    "coleta": ""
  },
  {
    "nome": "Rede Panvel de Farmácias",
    "endereco": "AVENIDA SENADOR SALGADO FILHO,96",
    "bairro": "CENTRO HISTORICO",
    "telefone": "(51) 32247083",
    "cep": "",
    "latitude": -30.0794992807,
    "longitude": -51.1141823088,
    "residuos": "medicamentos vencidos",
    "horario": "",
    "site": "http://panvel.com.br",
    "coleta": ""
  },
  {
    "nome": "Rede Panvel de Farmácias",
    "endereco": "AVENIDA SERTORIO,8000",
    "bairro": "SARANDI",
    "telefone": "(51) 33447925",
    "cep": "",
    "latitude": -29.9999817158,
    "longitude": -51.1321357618,
    "residuos": "medicamentos vencidos",
    "horario": "",
    "site": "http://panvel.com.br",
    "coleta": ""
  },
  {
    "nome": "Rede Panvel de Farmácias",
    "endereco": "RUA SETE DE SETEMBR,1126",
    "bairro": "CENTRO HISTORICO",
    "telefone": "(51) 32281314",
    "cep": "",
    "latitude": -30.028802005,
    "longitude": -51.2294188889,
    "residuos": "medicamentos vencidos",
    "horario": "",
    "site": "http://panvel.com.br",
    "coleta": ""
  },
  {
    "nome": "Rede Panvel de Farmácias",
    "endereco": "RUA SILVA SO,371",
    "bairro": "SANTA CECILIA",
    "telefone": "(51) 33322947",
    "cep": "",
    "latitude": -30.0408314497,
    "longitude": -51.2041300495,
    "residuos": "medicamentos vencidos",
    "horario": "",
    "site": "http://panvel.com.br",
    "coleta": ""
  },
  {
    "nome": "Rede Panvel de Farmácias",
    "endereco": "AVENIDA TERESOPOLIS,3217",
    "bairro": "TERESOPOLIS",
    "telefone": "(51) 33366600",
    "cep": "",
    "latitude": -30.0812184372,
    "longitude": -51.2106796917,
    "residuos": "medicamentos vencidos",
    "horario": "",
    "site": "http://panvel.com.br",
    "coleta": ""
  },
  {
    "nome": "Rede Panvel de Farmácias",
    "endereco": "AVENIDA TULIO DE ROSE,80",
    "bairro": "PASSO D AREIA",
    "telefone": "(51) 33622066",
    "cep": "",
    "latitude": -30.0226920826,
    "longitude": -51.1617920388,
    "residuos": "medicamentos vencidos",
    "horario": "",
    "site": "http://panvel.com.br",
    "coleta": ""
  },
  {
    "nome": "Rede Panvel de Farmácias",
    "endereco": "AVENIDA VENANCIO AIRES,1102",
    "bairro": "CIDADE BAIXA",
    "telefone": "(51) 33888788",
    "cep": "",
    "latitude": -30.037278159,
    "longitude": -51.2099695095,
    "residuos": "medicamentos vencidos",
    "horario": "",
    "site": "http://panvel.com.br",
    "coleta": ""
  },
  {
    "nome": "Rede Panvel de Farmácias",
    "endereco": "AVENIDA VENANCIO AIRES,655",
    "bairro": "CIDADE BAIXA",
    "telefone": "(51) 32275770",
    "cep": "",
    "latitude": -30.0397205464,
    "longitude": -51.2138270963,
    "residuos": "medicamentos vencidos",
    "horario": "",
    "site": "http://panvel.com.br",
    "coleta": ""
  },
  {
    "nome": "Rede Panvel de Farmácias",
    "endereco": "AVENIDA VENANCIO AIRES,399",
    "bairro": "LOJA 01CIDADE BAIXA",
    "telefone": "(51) 32264564",
    "cep": "",
    "latitude": -30.0411035102,
    "longitude": -51.2159372592,
    "residuos": "medicamentos vencidos",
    "horario": "",
    "site": "http://panvel.com.br",
    "coleta": ""
  },
  {
    "nome": "Rede Panvel de Farmácias",
    "endereco": "RUA VICENTE DA FONTOURA,2759",
    "bairro": "RIO BRANCO",
    "telefone": "(51) 33286535",
    "cep": "",
    "latitude": -30.0375752722,
    "longitude": -51.1958196095,
    "residuos": "medicamentos vencidos",
    "horario": "",
    "site": "http://panvel.com.br",
    "coleta": ""
  },
  {
    "nome": "Rede Panvel de Farmácias",
    "endereco": "RUA VINTE E QUATRO DE OUTUBRO,742",
    "bairro": "INDEPENDENCIA",
    "telefone": "(51) 32220188",
    "cep": "",
    "latitude": -30.0245345736,
    "longitude": -51.2008105867,
    "residuos": "medicamentos vencidos",
    "horario": "",
    "site": "http://panvel.com.br",
    "coleta": ""
  },
  {
    "nome": "Rede Panvel de Farmácias",
    "endereco": "RUA VINTE E QUATRO DE OUTUBRO,722",
    "bairro": "INDEPENDENCIA",
    "telefone": "(51) 32686745",
    "cep": "",
    "latitude": -30.0246428046,
    "longitude": -51.2010639195,
    "residuos": "medicamentos vencidos",
    "horario": "",
    "site": "http://panvel.com.br",
    "coleta": ""
  },
  {
    "nome": "Rede Panvel de Farmácias",
    "endereco": "RUA VINTE E QUATRO DE OUTUBRO,576",
    "bairro": "INDEPENDENCIA",
    "telefone": "(51) 32221031",
    "cep": "",
    "latitude": -30.0256001924,
    "longitude": -51.2021862873,
    "residuos": "medicamentos vencidos",
    "horario": "",
    "site": "http://panvel.com.br",
    "coleta": ""
  },
  {
    "nome": "Rede Panvel de Farmácias",
    "endereco": "RUA VOLUNTARIOS DA PATRIA,92",
    "bairro": "FILIAL 6CENTRO HISTORICO",
    "telefone": "(51) 32216758",
    "cep": "",
    "latitude": -30.0274052592,
    "longitude": -51.2256384443,
    "residuos": "medicamentos vencidos",
    "horario": "",
    "site": "http://panvel.com.br",
    "coleta": ""
  },
  {
    "nome": "Rede Panvel de Farmácias",
    "endereco": "AVENIDA WENCESLAU ESCOBAR,1933",
    "bairro": "CRISTAL",
    "telefone": "(51) 33951904",
    "cep": "",
    "latitude": -30.1077213655,
    "longitude": -51.2541133625,
    "residuos": "medicamentos vencidos",
    "horario": "",
    "site": "http://panvel.com.br",
    "coleta": ""
  },
  {
    "nome": "Rede Panvel de Farmácias",
    "endereco": "AVENIDA WENCESLAU ESCOBAR,2857",
    "bairro": "CRISTAL",
    "telefone": "(51) 33466144",
    "cep": "",
    "latitude": -30.1136772082,
    "longitude": -51.2549812178,
    "residuos": "medicamentos vencidos",
    "horario": "",
    "site": "http://panvel.com.br",
    "coleta": ""
  },
  {
    "nome": "Farmacia Popular do Brasil",
    "endereco": "Rua Ramiro Barcelos,2500",
    "bairro": "",
    "telefone": "(51) 33085728",
    "cep": "",
    "latitude": -30.0416291186,
    "longitude": -51.2080364542,
    "residuos": "medicamentos vencidos",
    "horario": "",
    "site": "",
    "coleta": ""
  },
  {
    "nome": "Pharma e Cia",
    "endereco": "Rua Pinto Bandeira,472",
    "bairro": "",
    "telefone": 33428066,
    "cep": "",
    "latitude": -30.028529156,
    "longitude": -51.2223319875,
    "residuos": "medicamentos vencidos",
    "horario": "",
    "site": "",
    "coleta": ""
  },
  {
    "nome": "Pharma e Cia",
    "endereco": "Rua Benjamin Constant,1879",
    "bairro": "",
    "telefone": 33428066,
    "cep": "",
    "latitude": -30.0174748004,
    "longitude": -51.197611463,
    "residuos": "medicamentos vencidos",
    "horario": "",
    "site": "",
    "coleta": ""
  },
  {
    "nome": "Pharma e Cia",
    "endereco": "Rua 24 de Outubro,435",
    "bairro": "",
    "telefone": 33428066,
    "cep": "",
    "latitude": -30.0270130366,
    "longitude": -51.2035664772,
    "residuos": "medicamentos vencidos",
    "horario": "",
    "site": "",
    "coleta": ""
  },
  {
    "nome": "Igreja do Rosário",
    "endereco": "Rua Vigário José Inácio,402",
    "bairro": "",
    "telefone": "",
    "cep": "",
    "latitude": -30.0292847907,
    "longitude": -51.2256535677,
    "residuos": "medicamentos não vencidos",
    "horario": "",
    "site": "",
    "coleta": ""
  },
  {
    "nome": "Hospital Militar",
    "endereco": "Avenida Mariland,450",
    "bairro": "",
    "telefone": "",
    "cep": "",
    "latitude": -30.0184909559,
    "longitude": -51.1942100685,
    "residuos": "",
    "horario": "",
    "site": "",
    "coleta": ""
  }
]